$GNRMC,113348.00,A,1244.40363,N,07747.43971,E,1.033,,111125,,,A,V*14
$GNGGA,113348.00,1244.40363,N,07747.43971,E,1,07,1.88,836.1,M,,M,,*50
$GNGSA,A,3,01,19,02,09,07,06,,,,,,,2.70,1.88,1.94,1*0A
$GNGSA,A,3,26,,,,,,,,,,,,2.70,1.88,1.94,3*0F
$GNGSA,A,3,,,,,,,,,,,,,2.70,1.88,1.94,2*0A
$GPGSV,4,1,15,01,31,090,24,02,18,056,20,06,08,194,24,07,62,062,19,0*69
$GPGSV,4,2,15,09,30,175,32,19,41,226,31,13,14,317,,14,35,328,19,0*66
$GPGSV,4,3,15,17,63,242,,30,,,22,37,24,261,,39,28,260,,0*51
$GPGSV,4,4,15,42,18,096,,40,59,242,,41,73,157,,0*5F
$GAGSV,1,1,02,26,14,184,35,07,33,167,,0*7B
$GLGSV,1,1,00,0*79
$GNVTG,,T,,M,1.033,N,1.913,K,A*36
$GNRMC,113349.00,A,1244.40374,N,07747.43976,E,1.601,,111125,,,A,V*13
$GNGGA,113349.00,1244.40374,N,07747.43976,E,1,07,1.88,836.0,M,,M,,*51
$GNGSA,A,3,01,19,02,09,07,06,,,,,,,2.70,1.88,1.94,1*0A
$GNGSA,A,3,26,,,,,,,,,,,,2.70,1.88,1.94,3*0F
$GNGSA,A,3,,,,,,,,,,,,,2.70,1.88,1.94,2*0A
$GPGSV,4,1,15,01,31,090,25,02,18,056,21,06,08,194,23,07,62,062,18,0*6F
$GPGSV,4,2,15,09,30,175,32,19,41,226,30,13,14,317,,14,35,328,17,0*69
$GPGSV,4,3,15,17,63,242,,30,,,22,37,24,261,,39,28,260,,0*51
$GPGSV,4,4,15,42,18,096,,40,59,242,,41,73,157,,0*5F
$GAGSV,1,1,02,26,14,184,34,07,33,167,,0*7A
$GLGSV,1,1,00,0*79
$GNVTG,,T,,M,1.601,N,2.964,K,A*32
$GNRMC,113350.00,A,1244.40438,N,07747.43965,E,3.696,,111125,,,A,V*1A
$GNGGA,113350.00,1244.40438,N,07747.43965,E,1,07,1.88,836.1,M,,M,,*55
$GNGSA,A,3,01,19,02,09,07,06,,,,,,,2.70,1.88,1.94,1*0A
$GNGSA,A,3,26,,,,,,,,,,,,2.70,1.88,1.94,3*0F
$GNGSA,A,3,,,,,,,,,,,,,2.70,1.88,1.94,2*0A
$GPGSV,4,1,15,01,31,090,25,02,18,056,21,06,08,194,23,07,62,062,18,0*6F
$GPGSV,4,2,15,09,30,175,32,19,41,226,29,13,14,317,,14,35,328,17,0*61
$GPGSV,4,3,15,17,63,242,,30,,,22,37,24,261,,39,28,260,,0*51
$GPGSV,4,4,15,42,18,096,,40,59,242,,41,73,157,,0*5F
$GAGSV,1,1,02,26,14,184,34,07,33,167,,0*7A
$GLGSV,1,1,00,0*79
$GNVTG,,T,,M,3.696,N,6.845,K,A*38
$GNRMC,113351.00,A,1244.40464,N,07747.43982,E,1.415,,111125,,,A,V*10
$GNGGA,113351.00,1244.40464,N,07747.43982,E,1,07,1.88,836.2,M,,M,,*57
$GNGSA,A,3,01,19,02,09,07,06,,,,,,,2.70,1.88,1.94,1*0A
$GNGSA,A,3,26,,,,,,,,,,,,2.70,1.88,1.94,3*0F
$GNGSA,A,3,,,,,,,,,,,,,2.70,1.88,1.94,2*0A
$GPGSV,4,1,15,01,31,090,27,02,18,056,21,06,08,194,22,07,62,062,15,0*61
$GPGSV,4,2,15,09,30,175,32,19,41,226,29,13,14,317,,14,35,328,16,0*60
$GPGSV,4,3,15,17,63,242,,30,,,23,37,24,261,,39,28,260,,0*50
$GPGSV,4,4,15,42,18,096,,40,59,242,,41,73,157,,0*5F
$GAGSV,1,1,02,26,14,184,34,07,33,167,,0*7A
$GLGSV,1,1,00,0*79
$GNVTG,,T,,M,1.415,N,2.621,K,A*3B
$GNRMC,113352.00,A,1244.40466,N,07747.43974,E,0.702,,111125,,,A,V*1C
$GNGGA,113352.00,1244.40466,N,07747.43974,E,1,07,1.88,836.2,M,,M,,*5F
$GNGSA,A,3,01,19,02,09,07,06,,,,,,,2.70,1.88,1.94,1*0A
$GNGSA,A,3,26,,,,,,,,,,,,2.70,1.88,1.94,3*0F
$GNGSA,A,3,,,,,,,,,,,,,2.70,1.88,1.94,2*0A
$GPGSV,4,1,15,01,31,090,26,02,18,056,21,06,08,194,23,07,62,062,15,0*61
$GPGSV,4,2,15,09,30,175,32,19,41,226,29,13,14,317,,14,35,328,16,0*60
$GPGSV,4,3,15,17,63,242,,30,,,23,37,24,261,,39,28,260,,0*50
$GPGSV,4,4,15,42,18,096,,40,59,242,,41,73,157,,0*5F
$GAGSV,1,1,02,26,14,184,34,07,33,167,,0*7A
$GLGSV,1,1,00,0*79
$GNVTG,,T,,M,0.702,N,1.301,K,A*3B
$GNRMC,113353.00,A,1244.40412,N,07747.43986,E,3.457,,111125,,,A,V*13
$GNGGA,113353.00,1244.40412,N,07747.43986,E,1,07,1.88,836.2,M,,M,,*50
$GNGSA,A,3,01,19,02,09,07,06,,,,,,,2.70,1.88,1.94,1*0A
$GNGSA,A,3,26,,,,,,,,,,,,2.70,1.88,1.94,3*0F
$GNGSA,A,3,,,,,,,,,,,,,2.70,1.88,1.94,2*0A
$GPGSV,4,1,15,01,31,090,26,02,18,056,20,06,08,194,22,07,62,062,19,0*6D
$GPGSV,4,2,15,09,30,175,32,19,41,226,29,13,14,317,,14,35,328,16,0*60
$GPGSV,4,3,15,17,63,242,,30,,,22,37,24,261,,39,28,260,,0*51
$GPGSV,4,4,15,42,18,096,,40,59,242,,41,73,157,,0*5F
$GAGSV,1,1,02,26,14,184,34,07,33,167,,0*7A
$GLGSV,1,1,00,0*79
$GNVTG,,T,,M,3.457,N,6.401,K,A*3B
$GNRMC,113354.00,A,1244.40350,N,07747.43998,E,2.054,,111125,,,A,V*1C
$GNGGA,113354.00,1244.40350,N,07747.43998,E,1,07,1.89,836.2,M,,M,,*58
$GNGSA,A,3,01,19,02,09,07,06,,,,,,,3.18,1.89,2.56,1*09
$GNGSA,A,3,26,,,,,,,,,,,,3.18,1.89,2.56,3*0C
$GNGSA,A,3,,,,,,,,,,,,,3.18,1.89,2.56,2*09
$GPGSV,4,1,15,01,31,090,27,02,18,056,20,06,08,194,22,09,30,175,32,0*6B
$GPGSV,4,2,15,19,41,226,29,07,62,062,19,13,14,317,,14,35,328,16,0*67
$GPGSV,4,3,15,17,63,242,,30,,,23,37,24,261,,39,28,260,,0*50
$GPGSV,4,4,15,42,18,096,,40,59,242,,41,73,157,,0*5F
$GAGSV,1,1,03,26,14,184,35,07,33,167,,13,34,131,,0*4C
$GLGSV,1,1,00,0*79
$GNVTG,,T,,M,2.054,N,3.805,K,A*30
$GNRMC,113355.00,A,1244.40347,N,07747.43997,E,1.344,,111125,,,A,V*15
$GNGGA,113355.00,1244.40347,N,07747.43997,E,1,07,2.96,836.2,M,,M,,*5D
$GNGSA,A,3,01,19,02,09,07,06,,,,,,,4.67,2.96,3.62,1*0D
$GNGSA,A,3,26,,,,,,,,,,,,4.67,2.96,3.62,3*08
$GNGSA,A,3,,,,,,,,,,,,,4.67,2.96,3.62,2*0D
$GPGSV,4,1,15,01,31,090,26,06,08,194,21,09,30,175,31,19,41,226,30,0*68
$GPGSV,4,2,15,02,18,056,21,07,62,062,19,13,14,317,,14,35,328,18,0*62
$GPGSV,4,3,15,17,63,243,,30,,,23,37,24,261,,39,28,260,,0*51
$GPGSV,4,4,15,42,18,096,,40,59,242,,41,73,157,,0*5F
$GAGSV,1,1,03,26,14,184,35,07,33,167,,13,34,131,,0*4C
$GLGSV,1,1,00,0*79
$GNVTG,,T,,M,1.344,N,2.489,K,A*38
$GNRMC,113356.00,A,1244.40412,N,07747.43962,E,3.821,,111125,,,A,V*11
$GNGGA,113356.00,1244.40412,N,07747.43962,E,1,07,2.85,836.2,M,,M,,*51
$GNGSA,A,3,01,19,02,09,07,06,,,,,,,4.52,2.85,3.50,1*08
$GNGSA,A,3,26,,,,,,,,,,,,4.52,2.85,3.50,3*0D
$GNGSA,A,3,,,,,,,,,,,,,4.52,2.85,3.50,2*08
$GPGSV,4,1,15,01,31,090,26,06,08,194,21,07,62,062,19,09,30,175,31,0*6F
$GPGSV,4,2,15,19,41,226,30,02,18,056,21,13,14,317,,14,35,328,18,0*65
$GPGSV,4,3,15,17,63,243,,30,,,20,37,24,261,,39,28,260,,0*52
$GPGSV,4,4,15,42,18,096,,40,59,242,,41,73,157,,0*5F
$GAGSV,1,1,03,26,14,184,35,07,33,167,,13,34,131,,0*4C
$GLGSV,1,1,00,0*79
$GNVTG,,T,,M,3.821,N,7.076,K,A*33
$GNRMC,113357.00,A,1244.40481,N,07747.43930,E,3.485,,111125,,,A,V*1F
$GNGGA,113357.00,1244.40481,N,07747.43930,E,1,07,2.85,836.2,M,,M,,*5D
$GNGSA,A,3,01,19,02,09,07,06,,,,,,,4.52,2.85,3.50,1*08
$GNGSA,A,3,26,,,,,,,,,,,,4.52,2.85,3.50,3*0D
$GNGSA,A,3,,,,,,,,,,,,,4.52,2.85,3.50,2*08
$GPGSV,4,1,15,01,31,090,25,06,08,194,21,07,62,062,19,09,30,175,32,0*6F
$GPGSV,4,2,15,19,41,226,30,02,18,056,18,13,14,317,,14,35,328,17,0*60
$GPGSV,4,3,15,17,63,243,,30,,,20,37,24,261,,39,28,260,,0*52
$GPGSV,4,4,15,42,18,096,,40,59,242,,41,73,157,,0*5F
$GAGSV,1,1,03,26,14,184,34,07,33,167,,13,34,131,,0*4D
$GLGSV,1,1,00,0*79
$GNVTG,,T,,M,3.485,N,6.455,K,A*35
$GNRMC,113358.00,A,1244.40535,N,07747.43901,E,2.721,,111125,,,A,V*10
$GNGGA,113358.00,1244.40535,N,07747.43901,E,1,07,2.85,836.2,M,,M,,*5E
$GNGSA,A,3,01,19,02,09,07,06,,,,,,,4.52,2.85,3.50,1*08
$GNGSA,A,3,26,,,,,,,,,,,,4.52,2.85,3.50,3*0D
$GNGSA,A,3,,,,,,,,,,,,,4.52,2.85,3.50,2*08
$GPGSV,4,1,15,01,31,090,26,06,08,194,20,07,62,062,19,09,30,175,31,0*6E
$GPGSV,4,2,15,19,41,226,30,02,18,056,18,13,14,317,,14,35,328,17,0*60
$GPGSV,4,3,15,17,63,243,,30,,,21,37,24,261,,39,28,260,,0*53
$GPGSV,4,4,15,42,18,096,,40,59,242,,41,73,157,,0*5F
$GAGSV,1,1,03,26,14,184,34,07,33,167,,13,34,131,,0*4D
$GLGSV,1,1,00,0*79
$GNVTG,,T,,M,2.721,N,5.039,K,A*34
$GNRMC,113359.00,A,1244.40519,N,07747.43923,E,0.241,,111125,,,A,V*1E
$GNGGA,113359.00,1244.40519,N,07747.43923,E,1,07,2.85,836.2,M,,M,,*51
$GNGSA,A,3,01,19,02,09,07,06,,,,,,,4.52,2.85,3.50,1*08
$GNGSA,A,3,26,,,,,,,,,,,,4.52,2.85,3.50,3*0D
$GNGSA,A,3,,,,,,,,,,,,,4.52,2.85,3.50,2*08
$GPGSV,4,1,15,01,31,090,24,06,08,194,20,07,62,062,20,09,30,175,31,0*66
$GPGSV,4,2,15,19,41,226,30,02,18,056,20,13,14,317,,14,35,328,18,0*64
$GPGSV,4,3,15,17,63,243,,30,,,21,37,24,261,,39,28,260,,0*53
$GPGSV,4,4,15,42,18,096,,40,59,242,,41,73,157,,0*5F
$GAGSV,1,1,03,26,14,184,35,07,33,167,,13,34,131,,0*4C
$GLGSV,1,1,00,0*79
$GNVTG,,T,,M,0.241,N,0.446,K,A*3C
$GNRMC,113400.00,A,1244.40473,N,07747.43962,E,3.344,,111125,,,A,V*1A
$GNGGA,113400.00,1244.40473,N,07747.43962,E,1,07,2.85,836.2,M,,M,,*52
$GNGSA,A,3,01,19,02,09,07,06,,,,,,,4.52,2.85,3.50,1*08
$GNGSA,A,3,26,,,,,,,,,,,,4.52,2.85,3.50,3*0D
$GNGSA,A,3,,,,,,,,,,,,,4.52,2.85,3.50,2*08
$GPGSV,4,1,15,01,31,090,25,06,08,194,20,07,62,062,20,09,30,175,31,0*67
$GPGSV,4,2,15,19,41,226,30,02,18,056,20,13,14,317,,14,35,328,18,0*64
$GPGSV,4,3,15,17,63,243,,30,,,18,37,24,261,,39,28,260,,0*59
$GPGSV,4,4,15,42,18,096,,40,59,242,,41,73,157,,0*5F
$GAGSV,1,1,03,26,15,184,34,07,33,167,,13,34,131,,0*4C
$GLGSV,1,1,00,0*79
$GNVTG,,T,,M,3.344,N,6.193,K,A*30
$GNRMC,113401.00,A,1244.40445,N,07747.43971,E,1.484,,111125,,,A,V*15
$GNGGA,113401.00,1244.40445,N,07747.43971,E,1,07,2.86,836.2,M,,M,,*57
$GNGSA,A,3,01,19,02,09,07,06,,,,,,,4.52,2.86,3.51,1*0A
$GNGSA,A,3,26,,,,,,,,,,,,4.52,2.86,3.51,3*0F
$GNGSA,A,3,,,,,,,,,,,,,4.52,2.86,3.51,2*0A
$GPGSV,4,1,15,01,31,090,23,06,08,194,20,07,62,062,21,09,30,175,31,0*60
$GPGSV,4,2,15,19,41,226,29,02,18,056,17,13,14,317,,14,35,328,16,0*66
$GPGSV,4,3,15,17,63,243,,30,,,18,37,24,261,,39,28,260,,0*59
$GPGSV,4,4,15,42,18,096,,40,59,242,,41,73,157,,0*5F
$GAGSV,1,1,03,26,15,184,34,07,33,167,,13,34,131,,0*4C
$GLGSV,1,1,00,0*79
$GNVTG,,T,,M,1.484,N,2.749,K,A*3C
$GNRMC,113402.00,A,1244.40444,N,07747.43988,E,1.968,,111125,,,A,V*1E
$GNGGA,113402.00,1244.40444,N,07747.43988,E,1,07,2.86,836.2,M,,M,,*53
$GNGSA,A,3,01,19,02,09,07,06,,,,,,,4.52,2.86,3.51,1*0A
$GNGSA,A,3,26,,,,,,,,,,,,4.52,2.86,3.51,3*0F
$GNGSA,A,3,,,,,,,,,,,,,4.52,2.86,3.51,2*0A
$GPGSV,4,1,15,01,31,090,24,06,08,194,21,07,62,062,21,09,30,175,31,0*66
$GPGSV,4,2,15,19,41,226,30,02,18,056,17,13,14,317,,14,35,328,16,0*6E
$GPGSV,4,3,15,17,63,243,,30,,,15,37,24,261,,39,28,260,,0*54
$GPGSV,4,4,15,42,18,096,,40,59,242,,41,73,157,,0*5F
$GAGSV,1,1,03,26,15,184,33,07,33,167,,13,34,131,,0*4B
$GLGSV,1,1,00,0*79
$GNVTG,,T,,M,1.968,N,3.646,K,A*3C
$GNRMC,113403.00,A,1244.40462,N,07747.43961,E,3.834,,111125,,,A,V*16
$GNGGA,113403.00,1244.40462,N,07747.43961,E,1,07,2.86,836.2,M,,M,,*51
$GNGSA,A,3,01,19,02,09,07,06,,,,,,,4.52,2.86,3.51,1*0A
$GNGSA,A,3,26,,,,,,,,,,,,4.52,2.86,3.51,3*0F
$GNGSA,A,3,,,,,,,,,,,,,4.52,2.86,3.51,2*0A
$GPGSV,4,1,15,01,31,090,23,06,08,194,21,07,62,062,21,09,30,175,32,0*62
$GPGSV,4,2,15,19,41,226,31,02,18,056,17,13,14,317,,14,35,328,17,0*6E
$GPGSV,4,3,15,17,63,243,,30,,,15,37,24,261,,39,28,260,,0*54
$GPGSV,4,4,15,42,18,096,,40,59,242,,41,73,157,,0*5F
$GAGSV,1,1,03,26,15,184,34,07,33,167,,13,34,131,,0*4C
$GLGSV,1,1,00,0*79
$GNVTG,,T,,M,3.834,N,7.100,K,A*37
$GNRMC,113404.00,A,1244.40461,N,07747.43949,E,2.876,,111125,,,A,V*1F
$GNGGA,113404.00,1244.40461,N,07747.43949,E,1,07,2.86,836.2,M,,M,,*5F
$GNGSA,A,3,01,19,02,09,07,06,,,,,,,4.52,2.86,3.51,1*0A
$GNGSA,A,3,26,,,,,,,,,,,,4.52,2.86,3.51,3*0F
$GNGSA,A,3,,,,,,,,,,,,,4.52,2.86,3.51,2*0A
$GPGSV,4,1,15,01,31,090,25,06,08,194,21,07,62,062,21,09,30,175,32,0*64
$GPGSV,4,2,15,19,41,226,30,02,18,056,17,13,14,317,,14,35,328,17,0*6F
$GPGSV,4,3,15,17,63,243,,30,,,15,37,24,261,,39,28,260,,0*54
$GPGSV,4,4,15,42,18,096,,40,59,242,,41,73,157,,0*5F
$GAGSV,1,1,03,26,15,184,34,07,33,167,,13,34,131,,0*4C
$GLGSV,1,1,00,0*79
$GNVTG,,T,,M,2.876,N,5.327,K,A*35
$GNRMC,113405.00,A,1244.40448,N,07747.43933,E,1.760,,111125,,,A,V*13
$GNGGA,113405.00,1244.40448,N,07747.43933,E,1,07,2.86,836.2,M,,M,,*58
$GNGSA,A,3,01,19,02,09,07,06,,,,,,,4.53,2.86,3.51,1*0B
$GNGSA,A,3,26,,,,,,,,,,,,4.53,2.86,3.51,3*0E
$GNGSA,A,3,,,,,,,,,,,,,4.53,2.86,3.51,2*0B
$GPGSV,4,1,15,01,31,090,26,06,08,194,21,07,62,062,22,09,30,175,32,0*64
$GPGSV,4,2,15,19,41,226,31,02,18,056,16,13,14,317,,14,35,328,14,0*6C
$GPGSV,4,3,15,17,63,243,,30,,,15,37,24,261,,39,28,260,,0*54
$GPGSV,4,4,15,42,18,096,,40,59,242,,41,73,157,,0*5F
$GAGSV,1,1,03,26,15,184,34,07,33,167,,13,34,131,,0*4C
$GLGSV,1,1,00,0*79
$GNVTG,,T,,M,1.760,N,3.260,K,A*3A
$GNRMC,113406.00,A,1244.40418,N,07747.43924,E,1.879,,111125,,,A,V*14
$GNGGA,113406.00,1244.40418,N,07747.43924,E,1,07,3.15,836.2,M,,M,,*53
$GNGSA,A,3,01,19,02,09,07,06,,,,,,,5.13,3.15,4.05,1*03
$GNGSA,A,3,26,,,,,,,,,,,,5.13,3.15,4.05,3*06
$GNGSA,A,3,,,,,,,,,,,,,5.13,3.15,4.05,2*03
$GPGSV,4,1,15,06,08,194,19,07,62,062,22,09,30,175,31,19,41,226,31,0*6B
$GPGSV,4,2,15,01,31,090,26,02,18,056,16,13,14,317,,14,35,328,14,0*6B
$GPGSV,4,3,15,17,63,243,,30,,,15,37,24,261,,39,28,260,,0*54
$GPGSV,4,4,15,42,18,096,,40,59,242,,41,73,157,,0*5F
$GAGSV,1,1,03,26,15,184,34,07,33,167,,13,34,131,,0*4C
$GLGSV,1,1,00,0*79
$GNVTG,,T,,M,1.879,N,3.479,K,A*33
$GNRMC,113407.00,A,1244.40373,N,07747.43973,E,1.479,,111125,,,A,V*11
$GNGGA,113407.00,1244.40373,N,07747.43973,E,1,07,2.86,836.2,M,,M,,*51
$GNGSA,A,3,01,19,02,09,07,06,,,,,,,4.53,2.86,3.51,1*0B
$GNGSA,A,3,26,,,,,,,,,,,,4.53,2.86,3.51,3*0E
$GNGSA,A,3,,,,,,,,,,,,,4.53,2.86,3.51,2*0B
$GPGSV,4,1,15,01,31,090,26,06,08,194,19,07,62,062,20,09,30,175,31,0*6E
$GPGSV,4,2,15,19,41,226,31,02,18,056,15,13,14,317,,14,35,328,14,0*6F
$GPGSV,4,3,15,17,63,243,,30,,,15,37,24,261,,39,28,260,,0*54
$GPGSV,4,4,15,42,18,096,,40,59,242,,41,73,157,,0*5F
$GAGSV,1,1,03,26,15,184,34,07,33,167,,13,34,131,,0*4C
$GLGSV,1,1,00,0*79
$GNVTG,,T,,M,1.479,N,2.739,K,A*39
$GNRMC,113408.00,A,1244.40383,N,07747.44024,E,3.290,,111125,,,A,V*1E
$GNGGA,113408.00,1244.40383,N,07747.44024,E,1,07,2.86,836.2,M,,M,,*5D
$GNGSA,A,3,01,19,02,09,07,06,,,,,,,4.53,2.86,3.51,1*0B
$GNGSA,A,3,26,,,,,,,,,,,,4.53,2.86,3.51,3*0E
$GNGSA,A,3,,,,,,,,,,,,,4.53,2.86,3.51,2*0B
$GPGSV,4,1,15,01,31,090,27,06,08,194,19,07,62,062,20,09,30,175,32,0*6C
$GPGSV,4,2,15,19,41,226,31,02,18,056,15,13,14,317,,14,35,328,14,0*6F
$GPGSV,4,3,15,17,63,243,,30,,,15,37,24,261,,39,28,260,,0*54
$GPGSV,4,4,15,42,18,096,,40,59,242,,41,73,157,,0*5F
$GAGSV,1,1,03,26,15,184,35,07,33,167,,13,34,131,,0*4D
$GLGSV,1,1,00,0*79
$GNVTG,,T,,M,3.290,N,6.093,K,A*39
$GNRMC,113409.00,A,1244.40387,N,07747.44016,E,2.286,,111125,,,A,V*1C
$GNGGA,113409.00,1244.40387,N,07747.44016,E,1,07,2.86,836.2,M,,M,,*59
$GNGSA,A,3,01,19,02,09,07,06,,,,,,,4.53,2.86,3.51,1*0B
$GNGSA,A,3,26,,,,,,,,,,,,4.53,2.86,3.51,3*0E
$GNGSA,A,3,,,,,,,,,,,,,4.53,2.86,3.51,2*0B
$GPGSV,4,1,15,01,31,090,28,06,08,194,19,07,62,062,17,09,30,175,32,0*67
$GPGSV,4,2,15,19,41,226,31,02,18,056,15,13,14,317,,14,35,328,14,0*6F
$GPGSV,4,3,15,17,63,243,,30,,,15,37,24,261,,39,28,260,,0*54
$GPGSV,4,4,15,42,18,096,,40,59,242,,41,73,157,,0*5F
$GAGSV,1,1,03,26,15,184,34,07,33,167,,13,34,131,,0*4C
$GLGSV,1,1,00,0*79
$GNVTG,,T,,M,2.286,N,4.234,K,A*32
$GNRMC,113410.00,A,1244.40403,N,07747.44016,E,1.297,,111125,,,A,V*1C
$GNGGA,113410.00,1244.40403,N,07747.44016,E,1,07,2.86,836.2,M,,M,,*5A
$GNGSA,A,3,01,19,02,09,07,06,,,,,,,4.53,2.86,3.51,1*0B
$GNGSA,A,3,26,,,,,,,,,,,,4.53,2.86,3.51,3*0E
$GNGSA,A,3,,,,,,,,,,,,,4.53,2.86,3.51,2*0B
$GPGSV,4,1,15,01,31,090,29,06,08,194,20,07,62,062,17,09,30,175,32,0*6C
$GPGSV,4,2,15,19,41,226,31,02,18,056,15,13,14,317,,14,35,328,11,0*6A
$GPGSV,4,3,15,17,63,243,,30,,,15,37,24,261,,39,28,260,,0*54
$GPGSV,4,4,15,42,18,096,,40,59,242,,41,73,157,,0*5F
$GAGSV,1,1,03,26,15,184,34,07,33,167,,13,34,131,,0*4C
$GLGSV,1,1,00,0*79
$GNVTG,,T,,M,1.297,N,2.401,K,A*37
$GNRMC,113411.00,A,1244.40428,N,07747.44005,E,1.280,,111125,,,A,V*10
$GNGGA,113411.00,1244.40428,N,07747.44005,E,1,07,2.86,836.2,M,,M,,*50
$GNGSA,A,3,01,19,02,09,07,06,,,,,,,4.53,2.86,3.51,1*0B
$GNGSA,A,3,26,,,,,,,,,,,,4.53,2.86,3.51,3*0E
$GNGSA,A,3,,,,,,,,,,,,,4.53,2.86,3.51,2*0B
$GPGSV,4,1,15,01,31,090,28,06,08,194,20,07,62,062,15,09,30,175,32,0*6F
$GPGSV,4,2,15,19,41,226,31,02,18,056,15,13,14,317,,14,35,328,11,0*6A
$GPGSV,4,3,15,17,63,243,,30,,,15,37,24,261,,39,28,260,,0*54
$GPGSV,4,4,15,42,18,096,,40,59,242,,41,73,157,,0*5F
$GAGSV,1,1,03,26,15,184,34,07,33,167,,13,34,131,,0*4C
$GLGSV,1,1,00,0*79
$GNVTG,,T,,M,1.280,N,2.371,K,A*31
$GNRMC,113412.00,A,1244.40398,N,07747.44010,E,1.660,,111125,,,A,V*11
$GNGGA,113412.00,1244.40398,N,07747.44010,E,1,07,2.86,836.2,M,,M,,*5B
$GNGSA,A,3,01,19,02,09,07,06,,,,,,,4.53,2.86,3.52,1*08
$GNGSA,A,3,26,,,,,,,,,,,,4.53,2.86,3.52,3*0D
$GNGSA,A,3,,,,,,,,,,,,,4.53,2.86,3.52,2*08
$GPGSV,4,1,15,01,31,090,29,06,08,194,18,07,62,062,15,09,30,175,32,0*65
$GPGSV,4,2,15,19,41,226,31,02,18,056,14,13,14,317,,14,35,328,11,0*6B
$GPGSV,4,3,15,17,63,243,,30,,,17,37,24,261,,39,28,260,,0*56
$GPGSV,4,4,15,42,18,096,,40,59,242,,41,73,157,,0*5F
$GAGSV,1,1,03,26,15,184,34,07,33,167,,13,34,131,,0*4C
$GLGSV,1,1,00,0*79
$GNVTG,,T,,M,1.660,N,3.075,K,A*3D
$GNRMC,113413.00,A,1244.40392,N,07747.44020,E,0.717,,111125,,,A,V*19
$GNGGA,113413.00,1244.40392,N,07747.44020,E,1,07,4.01,836.2,M,,M,,*5A
$GNGSA,A,3,01,19,02,09,07,06,,,,,,,4.77,4.01,2.60,1*07
$GNGSA,A,3,26,,,,,,,,,,,,4.77,4.01,2.60,3*02
$GNGSA,A,3,,,,,,,,,,,,,4.77,4.01,2.60,2*07
$GPGSV,4,1,16,02,18,056,14,06,08,194,18,07,62,062,12,19,41,226,30,0*6D
$GPGSV,4,2,16,01,31,090,29,09,30,175,32,13,14,317,,14,35,328,11,0*65
$GPGSV,4,3,16,17,63,243,,22,30,310,,30,,,17,37,24,261,,0*50
$GPGSV,4,4,16,39,28,260,,42,18,096,,40,59,242,,41,73,157,,0*68
$GAGSV,1,1,03,26,15,184,34,07,33,167,,13,34,131,,0*4C
$GLGSV,1,1,00,0*79
$GNVTG,,T,,M,0.717,N,1.328,K,A*34
$GNRMC,113414.00,A,1244.40437,N,07747.43971,E,3.712,,111125,,,A,V*1A
$GNGGA,113414.00,1244.40437,N,07747.43971,E,1,07,2.40,836.2,M,,M,,*5C
$GNGSA,A,3,01,19,02,09,07,06,,,,,,,3.19,2.40,2.11,1*0D
$GNGSA,A,3,26,,,,,,,,,,,,3.19,2.40,2.11,3*08
$GNGSA,A,3,,,,,,,,,,,,,3.19,2.40,2.11,2*0D
$GPGSV,4,1,16,01,31,090,29,02,18,056,14,06,08,194,18,07,62,062,12,0*64
$GPGSV,4,2,16,19,41,226,30,09,30,175,33,13,14,317,,14,35,328,11,0*6D
$GPGSV,4,3,16,17,63,243,,22,30,310,,30,,,19,37,24,261,,0*5E
$GPGSV,4,4,16,39,28,260,,42,18,096,,40,59,242,,41,73,157,,0*68
$GAGSV,1,1,03,26,15,184,33,07,33,167,,13,34,131,,0*4B
$GLGSV,1,1,00,0*79
$GNVTG,,T,,M,3.712,N,6.875,K,A*36
$GNRMC,113415.00,A,1244.40469,N,07747.43967,E,2.228,,111125,,,A,V*1A
$GNGGA,113415.00,1244.40469,N,07747.43967,E,1,07,2.40,836.2,M,,M,,*51
$GNGSA,A,3,01,19,02,09,07,06,,,,,,,3.19,2.40,2.10,1*0C
$GNGSA,A,3,26,,,,,,,,,,,,3.19,2.40,2.10,3*09
$GNGSA,A,3,,,,,,,,,,,,,3.19,2.40,2.10,2*0C
$GPGSV,4,1,16,01,31,090,29,02,18,056,14,06,08,194,18,07,62,062,12,0*64
$GPGSV,4,2,16,19,41,226,31,09,30,175,32,13,14,317,,14,35,328,12,0*6E
$GPGSV,4,3,16,17,63,243,,22,30,310,,30,,,19,37,24,261,,0*5E
$GPGSV,4,4,16,39,28,260,,42,18,096,,40,59,242,,41,73,157,,0*68
$GAGSV,1,1,03,26,15,184,35,07,33,167,,13,34,131,,0*4D
$GLGSV,1,1,00,0*79
$GNVTG,,T,,M,2.228,N,4.126,K,A*36
$GNRMC,113416.00,A,1244.40468,N,07747.43991,E,0.491,,111125,,,A,V*17
$GNGGA,113416.00,1244.40468,N,07747.43991,E,1,07,5.87,836.2,M,,M,,*56
$GNGSA,A,3,01,19,02,09,07,06,,,,,,,5.95,5.87,1.00,1*00
$GNGSA,A,3,26,,,,,,,,,,,,5.95,5.87,1.00,3*05
$GNGSA,A,3,,,,,,,,,,,,,5.95,5.87,1.00,2*00
$GPGSV,4,1,16,06,08,194,18,09,30,175,33,19,41,226,31,01,31,090,28,0*6C
$GPGSV,4,2,16,02,18,056,14,07,62,062,12,13,14,317,,14,35,328,12,0*66
$GPGSV,4,3,16,17,63,243,,22,30,310,,30,,,20,37,24,261,,0*54
$GPGSV,4,4,16,39,28,260,,42,18,096,,40,59,242,,41,73,157,,0*68
$GAGSV,1,1,03,26,15,184,34,07,33,167,,13,34,131,,0*4C
$GLGSV,1,1,00,0*79
$GNVTG,,T,,M,0.491,N,0.910,K,A*39
$GNRMC,113417.00,A,1244.40461,N,07747.43978,E,1.971,,111125,,,A,V*1A
$GNGGA,113417.00,1244.40461,N,07747.43978,E,1,07,2.96,836.2,M,,M,,*5E
$GNGSA,A,3,01,19,02,09,07,06,,,,,,,4.70,2.96,3.65,1*0C
$GNGSA,A,3,26,,,,,,,,,,,,4.70,2.96,3.65,3*09
$GNGSA,A,3,,,,,,,,,,,,,4.70,2.96,3.65,2*0C
$GPGSV,4,1,16,01,31,090,27,06,08,194,18,09,30,175,33,19,41,226,31,0*63
$GPGSV,4,2,16,02,18,056,16,07,62,062,12,13,14,317,,14,35,328,12,0*64
$GPGSV,4,3,16,17,63,243,,22,30,310,,30,,,20,37,24,261,,0*54
$GPGSV,4,4,16,39,28,260,,42,18,096,,40,59,242,,41,73,157,,0*68
$GAGSV,1,1,03,26,15,184,34,07,33,167,,13,34,131,,0*4C
$GLGSV,1,1,00,0*79
$GNVTG,,T,,M,1.971,N,3.650,K,A*33
$GNRMC,113418.00,A,1244.40419,N,07747.43987,E,0.996,,111125,,,A,V*12
$GNGGA,113418.00,1244.40419,N,07747.43987,E,1,07,2.96,836.2,M,,M,,*5E
$GNGSA,A,3,01,19,02,09,07,06,,,,,,,4.70,2.96,3.65,1*0C
$GNGSA,A,3,26,,,,,,,,,,,,4.70,2.96,3.65,3*09
$GNGSA,A,3,,,,,,,,,,,,,4.70,2.96,3.65,2*0C
$GPGSV,4,1,16,01,31,090,27,06,08,194,17,09,29,175,32,19,41,226,30,0*64
$GPGSV,4,2,16,02,18,056,16,07,62,062,14,13,14,317,,14,35,328,12,0*62
$GPGSV,4,3,16,17,63,243,,22,30,310,,30,,,20,37,24,261,,0*54
$GPGSV,4,4,16,39,28,260,,42,18,096,,40,59,242,,41,73,157,,0*68
$GAGSV,1,1,03,26,15,184,35,07,33,167,,13,34,131,,0*4D
$GLGSV,1,1,00,0*79
$GNVTG,,T,,M,0.996,N,1.844,K,A*32
$GNRMC,113419.00,A,1244.40433,N,07747.44018,E,3.739,,111125,,,A,V*1B
$GNGGA,113419.00,1244.40433,N,07747.44018,E,1,07,1.87,836.3,M,,M,,*5D
$GNGSA,A,3,01,19,02,09,07,06,,,,,,,2.70,1.87,1.94,1*05
$GNGSA,A,3,26,,,,,,,,,,,,2.70,1.87,1.94,3*00
$GNGSA,A,3,,,,,,,,,,,,,2.70,1.87,1.94,2*05
$GPGSV,4,1,16,01,31,089,28,02,18,056,21,06,08,194,17,07,62,062,14,0*62
$GPGSV,4,2,16,09,29,175,33,19,41,226,30,13,14,317,,14,35,328,12,0*66
$GPGSV,4,3,16,17,63,243,,22,30,310,,30,,,20,37,24,261,,0*54
$GPGSV,4,4,16,39,28,260,,42,18,096,,40,59,242,,41,73,157,,0*68
$GAGSV,1,1,03,26,15,184,35,07,33,167,,13,34,131,,0*4D
$GLGSV,1,1,00,0*79
$GNVTG,,T,,M,3.739,N,6.925,K,A*3B
$GNRMC,113420.00,A,1244.40448,N,07747.44048,E,2.952,,111125,,,A,V*1A
$GNGGA,113420.00,1244.40448,N,07747.44048,E,1,07,2.87,836.3,M,,M,,*5D
$GNGSA,A,3,01,19,02,09,07,06,,,,,,,4.54,2.87,3.52,1*0E
$GNGSA,A,3,26,,,,,,,,,,,,4.54,2.87,3.52,3*0B
$GNGSA,A,3,,,,,,,,,,,,,4.54,2.87,3.52,2*0E
$GPGSV,4,1,16,01,31,089,26,06,08,194,18,07,62,062,14,09,29,175,33,0*69
$GPGSV,4,2,16,19,41,226,29,02,18,056,21,13,14,317,,14,35,328,14,0*62
$GPGSV,4,3,16,17,63,243,,22,30,310,,30,,,20,37,24,261,,0*54
$GPGSV,4,4,16,39,28,260,,42,18,096,,40,59,242,,41,73,157,,0*68
$GAGSV,1,1,03,26,15,184,35,07,33,167,,13,34,131,,0*4D
$GLGSV,1,1,00,0*79
$GNVTG,,T,,M,2.952,N,5.468,K,A*3E
$GNRMC,113421.00,A,1244.40429,N,07747.44036,E,0.704,,111125,,,A,V*1A
$GNGGA,113421.00,1244.40429,N,07747.44036,E,1,07,2.87,836.1,M,,M,,*50
$GNGSA,A,3,01,19,02,09,07,06,,,,,,,4.54,2.87,3.52,1*0E
$GNGSA,A,3,26,,,,,,,,,,,,4.54,2.87,3.52,3*0B
$GNGSA,A,3,,,,,,,,,,,,,4.54,2.87,3.52,2*0E
$GPGSV,4,1,16,01,31,089,26,06,08,194,18,07,62,062,14,09,29,175,32,0*68
$GPGSV,4,2,16,19,41,226,30,02,18,056,20,13,14,317,,14,35,328,14,0*6B
$GPGSV,4,3,16,17,63,243,,22,30,310,,30,,,20,37,24,261,,0*54
$GPGSV,4,4,16,39,28,260,,42,18,096,,40,59,242,,41,73,157,,0*68
$GAGSV,1,1,03,26,15,184,34,07,33,167,,13,34,131,,0*4C
$GLGSV,1,1,00,0*79
$GNVTG,,T,,M,0.704,N,1.304,K,A*38
$GNRMC,113422.00,A,1244.40432,N,07747.44006,E,1.522,,111125,,,A,V*17
$GNGGA,113422.00,1244.40432,N,07747.44006,E,1,07,2.96,836.0,M,,M,,*5B
$GNGSA,A,3,01,19,02,09,07,06,,,,,,,4.70,2.96,3.66,1*0F
$GNGSA,A,3,26,,,,,,,,,,,,4.70,2.96,3.66,3*0A
$GNGSA,A,3,,,,,,,,,,,,,4.70,2.96,3.66,2*0F
$GPGSV,4,1,16,01,31,089,26,06,08,194,17,09,29,175,32,19,41,226,29,0*65
$GPGSV,4,2,16,02,18,056,20,07,62,062,14,13,14,317,,14,35,328,14,0*61
$GPGSV,4,3,16,17,63,243,,22,30,310,,30,,,19,37,24,261,,0*5E
$GPGSV,4,4,16,39,28,260,,42,18,096,,40,59,242,,41,73,157,,0*68
$GAGSV,1,1,03,26,15,184,35,07,33,167,,13,34,131,,0*4D
$GLGSV,1,1,00,0*79
$GNVTG,,T,,M,1.522,N,2.818,K,A*3A
$GNRMC,113423.00,A,1244.40371,N,07747.44023,E,1.045,,111125,,,A,V*15
$GNGGA,113423.00,1244.40371,N,07747.44023,E,1,07,2.87,836.1,M,,M,,*5C
$GNGSA,A,3,01,19,02,09,07,06,,,,,,,4.54,2.87,3.52,1*0E
$GNGSA,A,3,26,,,,,,,,,,,,4.54,2.87,3.52,3*0B
$GNGSA,A,3,,,,,,,,,,,,,4.54,2.87,3.52,2*0E
$GPGSV,4,1,16,01,31,089,25,06,08,194,17,07,62,062,22,09,29,175,32,0*61
$GPGSV,4,2,16,19,41,226,29,02,18,056,20,13,14,317,,14,35,328,14,0*63
$GPGSV,4,3,16,17,63,243,,22,30,310,,30,,,19,37,24,261,,0*5E
$GPGSV,4,4,16,39,28,260,,42,18,096,,40,59,242,,41,73,157,,0*68
$GAGSV,1,1,03,26,15,184,34,07,33,167,,13,34,131,,0*4C
$GLGSV,1,1,00,0*79
$GNVTG,,T,,M,1.045,N,1.936,K,A*30
$GNRMC,113424.00,A,1244.40378,N,07747.44036,E,2.310,,111125,,,A,V*1F
$GNGGA,113424.00,1244.40378,N,07747.44036,E,1,07,2.87,836.2,M,,M,,*55
$GNGSA,A,3,01,19,02,09,07,06,,,,,,,4.55,2.87,3.53,1*0E
$GNGSA,A,3,26,,,,,,,,,,,,4.55,2.87,3.53,3*0B
$GNGSA,A,3,,,,,,,,,,,,,4.55,2.87,3.53,2*0E
$GPGSV,4,1,16,01,31,089,25,06,08,194,17,07,62,062,22,09,29,175,33,0*60
$GPGSV,4,2,16,19,41,226,29,02,18,056,20,13,14,317,,14,35,329,14,0*62
$GPGSV,4,3,16,17,63,243,,22,30,310,,30,,,18,37,24,261,,0*5F
$GPGSV,4,4,16,39,28,260,,42,18,096,,40,59,242,,41,73,157,,0*68
$GAGSV,1,1,04,26,15,184,34,07,33,167,,13,34,131,,15,21,073,,0*78
$GLGSV,1,1,00,0*79
$GNVTG,,T,,M,2.310,N,4.279,K,A*35
$GNRMC,113425.00,A,1244.40406,N,07747.44035,E,2.469,,111125,,,A,V*1A
$GNGGA,113425.00,1244.40406,N,07747.44035,E,1,07,2.96,836.2,M,,M,,*59
$GNGSA,A,3,01,19,02,09,07,06,,,,,,,4.71,2.96,3.66,1*0E
$GNGSA,A,3,26,,,,,,,,,,,,4.71,2.96,3.66,3*0B
$GNGSA,A,3,,,,,,,,,,,,,4.71,2.96,3.66,2*0E
$GPGSV,4,1,16,01,31,089,25,06,08,194,17,09,29,175,32,19,41,226,29,0*66
$GPGSV,4,2,16,02,18,056,17,07,62,062,23,13,14,317,,14,35,329,18,0*6C
$GPGSV,4,3,16,17,63,243,,22,30,310,,30,,,18,37,24,261,,0*5F
$GPGSV,4,4,16,39,28,260,,42,18,096,,40,59,242,,41,73,157,,0*68
$GAGSV,1,1,04,26,15,184,34,07,33,167,,13,34,131,,15,21,073,,0*78
$GLGSV,1,1,00,0*79
$GNVTG,,T,,M,2.469,N,4.572,K,A*30
$GNRMC,113426.00,A,1244.40382,N,07747.43999,E,2.054,,111125,,,A,V*10
$GNGGA,113426.00,1244.40382,N,07747.43999,E,1,07,2.87,836.2,M,,M,,*59
$GNGSA,A,3,01,19,02,09,07,06,,,,,,,4.55,2.87,3.53,1*0E
$GNGSA,A,3,26,,,,,,,,,,,,4.55,2.87,3.53,3*0B
$GNGSA,A,3,,,,,,,,,,,,,4.55,2.87,3.53,2*0E
$GPGSV,4,1,16,01,31,089,26,06,08,194,16,07,62,062,24,09,29,175,32,0*65
$GPGSV,4,2,16,19,41,226,29,02,18,056,17,13,14,317,,14,35,329,18,0*6A
$GPGSV,4,3,16,17,63,243,,22,30,310,,30,,,15,37,24,261,,0*52
$GPGSV,4,4,16,39,28,260,,42,18,096,,40,59,242,,41,73,157,,0*68
$GAGSV,1,1,04,26,15,184,36,07,33,167,,13,34,131,,15,21,073,,0*7A
$GLGSV,1,1,00,0*79
$GNVTG,,T,,M,2.054,N,3.804,K,A*31
$GNRMC,113427.00,A,1244.40366,N,07747.43962,E,1.322,,111125,,,A,V*1E
$GNGGA,113427.00,1244.40366,N,07747.43962,E,1,07,2.87,836.2,M,,M,,*56
$GNGSA,A,3,01,19,02,09,07,06,,,,,,,4.55,2.87,3.53,1*0E
$GNGSA,A,3,26,,,,,,,,,,,,4.55,2.87,3.53,3*0B
$GNGSA,A,3,,,,,,,,,,,,,4.55,2.87,3.53,2*0E
$GPGSV,4,1,16,01,31,089,28,06,08,194,16,07,62,062,22,09,29,175,32,0*6D
$GPGSV,4,2,16,19,41,226,30,02,18,056,14,13,14,317,,14,35,329,18,0*61
$GPGSV,4,3,16,17,63,243,,22,30,310,,30,,,15,37,24,261,,0*52
$GPGSV,4,4,16,39,28,260,,42,18,096,,40,59,242,,41,73,157,,0*68
$GAGSV,1,1,04,26,15,184,34,07,33,167,,13,34,131,,15,21,073,,0*78
$GLGSV,1,1,00,0*79
$GNVTG,,T,,M,1.322,N,2.449,K,A*34
$GNRMC,113428.00,A,1244.40295,N,07747.43992,E,1.078,,111125,,,A,V*1F
$GNGGA,113428.00,1244.40295,N,07747.43992,E,1,07,2.87,836.2,M,,M,,*5B
$GNGSA,A,3,01,19,02,09,07,06,,,,,,,4.55,2.87,3.53,1*0E
$GNGSA,A,3,26,,,,,,,,,,,,4.55,2.87,3.53,3*0B
$GNGSA,A,3,,,,,,,,,,,,,4.55,2.87,3.53,2*0E
$GPGSV,4,1,16,01,31,089,28,06,08,194,15,07,62,062,24,09,29,175,32,0*68
$GPGSV,4,2,16,19,41,226,28,02,18,056,14,13,14,317,,14,35,329,18,0*68
$GPGSV,4,3,16,17,63,243,,22,30,310,,30,,,15,37,24,261,,0*52
$GPGSV,4,4,16,39,28,260,,42,18,096,,40,59,242,,41,73,157,,0*68
$GAGSV,1,1,04,26,15,184,35,07,33,167,,13,34,131,,15,21,073,,0*79
$GLGSV,1,1,00,0*79
$GNVTG,,T,,M,1.078,N,1.997,K,A*35
$GNRMC,113429.00,A,1244.40287,N,07747.43992,E,2.985,,111125,,,A,V*15
$GNGGA,113429.00,1244.40287,N,07747.43992,E,1,07,2.87,836.2,M,,M,,*59
$GNGSA,A,3,01,19,02,09,07,06,,,,,,,4.55,2.87,3.53,1*0E
$GNGSA,A,3,26,,,,,,,,,,,,4.55,2.87,3.53,3*0B
$GNGSA,A,3,,,,,,,,,,,,,4.55,2.87,3.53,2*0E
$GPGSV,4,1,16,01,31,089,27,06,08,194,15,07,62,063,22,09,29,175,32,0*60
$GPGSV,4,2,16,19,41,226,29,02,18,056,14,13,14,317,,14,35,329,21,0*63
$GPGSV,4,3,16,17,63,243,,22,30,310,,30,,,15,37,24,261,,0*52
$GPGSV,4,4,16,39,28,260,,42,18,096,,40,59,242,,41,73,157,,0*68
$GAGSV,1,1,04,26,15,184,35,07,33,167,,13,34,131,,15,21,073,,0*79
$GLGSV,1,1,00,0*79
$GNVTG,,T,,M,2.985,N,5.528,K,A*31
$GNRMC,113430.00,A,1244.40297,N,07747.43967,E,2.469,,111125,,,A,V*19
$GNGGA,113430.00,1244.40297,N,07747.43967,E,1,07,1.88,836.2,M,,M,,*56
$GNGSA,A,3,01,19,02,09,07,06,,,,,,,3.18,1.88,2.57,1*09
$GNGSA,A,3,26,,,,,,,,,,,,3.18,1.88,2.57,3*0C
$GNGSA,A,3,,,,,,,,,,,,,3.18,1.88,2.57,2*09
$GPGSV,4,1,16,01,31,089,27,02,18,056,14,06,08,194,15,09,29,175,32,0*6B
$GPGSV,4,2,16,19,41,226,29,07,62,063,20,13,14,317,,14,35,329,21,0*6A
$GPGSV,4,3,16,17,63,243,,22,30,310,,30,,,15,37,24,261,,0*52
$GPGSV,4,4,16,39,28,260,,42,18,096,,40,59,242,,41,73,157,,0*68
$GAGSV,1,1,04,26,15,184,34,07,33,167,,13,34,131,,15,21,073,,0*78
$GLGSV,1,1,00,0*79
$GNVTG,,T,,M,2.469,N,4.573,K,A*31
$GNRMC,113431.00,A,1244.40313,N,07747.43920,E,2.000,,111125,,,A,V*1D
$GNGGA,113431.00,1244.40313,N,07747.43920,E,1,07,2.50,836.2,M,,M,,*5F
$GNGSA,A,3,01,19,02,09,07,06,,,,,,,2.69,2.50,1.00,1*09
$GNGSA,A,3,26,,,,,,,,,,,,2.69,2.50,1.00,3*0C
$GNGSA,A,3,,,,,,,,,,,,,2.69,2.50,1.00,2*09
$GPGSV,4,1,16,01,31,089,28,09,29,175,32,19,41,227,29,02,18,056,14,0*63
$GPGSV,4,2,16,06,08,194,15,07,62,063,20,13,14,317,,14,35,329,20,0*6D
$GPGSV,4,3,16,17,63,243,,22,30,310,,30,,,18,37,24,261,,0*5F
$GPGSV,4,4,16,39,28,260,,42,18,096,,40,59,242,,41,73,157,,0*68
$GAGSV,1,1,04,26,15,184,34,07,33,167,,13,34,131,,15,21,073,,0*78
$GLGSV,1,1,00,0*79
$GNVTG,,T,,M,2.000,N,3.704,K,A*3F
$GNRMC,113432.00,A,1244.40290,N,07747.43858,E,3.003,,111125,,,A,V*18
$GNGGA,113432.00,1244.40290,N,07747.43858,E,1,07,3.67,836.2,M,,M,,*5D
$GNGSA,A,3,01,19,02,09,07,06,,,,,,,7.64,3.67,6.70,1*04
$GNGSA,A,3,26,,,,,,,,,,,,7.64,3.67,6.70,3*01
$GNGSA,A,3,,,,,,,,,,,,,7.64,3.67,6.70,2*04
$GPGSV,4,1,16,01,31,089,27,07,62,063,18,09,29,175,33,19,41,227,29,0*6F
$GPGSV,4,2,16,02,18,056,12,06,08,194,15,13,14,317,,14,35,329,20,0*62
$GPGSV,4,3,16,17,63,243,,22,30,310,,30,,,18,37,24,261,,0*5F
$GPGSV,4,4,16,39,28,260,,42,18,096,,40,59,242,,41,73,157,,0*68
$GAGSV,1,1,04,26,15,184,34,07,33,167,,13,34,131,,15,21,073,,0*78
$GLGSV,1,1,00,0*79
$GNVTG,,T,,M,3.003,N,5.561,K,A*3A
$GNRMC,113433.00,A,1244.40251,N,07747.43841,E,1.046,,111125,,,A,V*1F
$GNGGA,113433.00,1244.40251,N,07747.43841,E,1,07,2.87,836.2,M,,M,,*56
$GNGSA,A,3,01,19,02,09,07,06,,,,,,,4.55,2.87,3.53,1*0E
$GNGSA,A,3,26,,,,,,,,,,,,4.55,2.87,3.53,3*0B
$GNGSA,A,3,,,,,,,,,,,,,4.55,2.87,3.53,2*0E
$GPGSV,4,1,16,01,31,089,27,06,08,194,15,07,62,063,18,09,29,175,32,0*69
$GPGSV,4,2,16,19,41,227,30,02,18,056,12,13,14,317,,14,35,329,16,0*68
$GPGSV,4,3,16,17,63,243,,22,30,310,,30,,,17,37,24,261,,0*50
$GPGSV,4,4,16,39,28,260,,42,18,096,,40,59,242,,41,73,157,,0*68
$GAGSV,1,1,04,26,15,184,35,07,33,167,,13,34,131,,15,21,073,,0*79
$GLGSV,1,1,00,0*79
$GNVTG,,T,,M,1.046,N,1.938,K,A*3D
$GNRMC,113434.00,A,1244.40219,N,07747.43875,E,2.506,,111125,,,A,V*11
$GNGGA,113434.00,1244.40219,N,07747.43875,E,1,07,3.67,836.2,M,,M,,*55
$GNGSA,A,3,01,19,02,09,07,06,,,,,,,7.64,3.67,6.70,1*04
$GNGSA,A,3,26,,,,,,,,,,,,7.64,3.67,6.70,3*01
$GNGSA,A,3,,,,,,,,,,,,,7.64,3.67,6.70,2*04
$GPGSV,4,1,16,01,31,089,28,07,62,063,16,09,29,175,32,19,41,227,28,0*6E
$GPGSV,4,2,16,02,18,056,12,06,08,194,15,13,14,317,,14,35,329,16,0*67
$GPGSV,4,3,16,17,63,243,,22,30,310,,30,,,17,37,24,261,,0*50
$GPGSV,4,4,16,39,28,260,,42,18,096,,40,59,242,,41,73,157,,0*68
$GAGSV,1,1,04,26,15,184,35,07,33,167,,13,34,131,,15,21,073,,0*79
$GLGSV,1,1,00,0*79
$GNVTG,,T,,M,2.506,N,4.642,K,A*38
$GNRMC,113435.00,A,1244.40274,N,07747.43888,E,2.314,,111125,,,A,V*1C
$GNGGA,113435.00,1244.40274,N,07747.43888,E,1,07,3.67,836.2,M,,M,,*5D
$GNGSA,A,3,01,19,02,09,07,06,,,,,,,7.63,3.67,6.70,1*03
$GNGSA,A,3,26,,,,,,,,,,,,7.63,3.67,6.70,3*06
$GNGSA,A,3,,,,,,,,,,,,,7.63,3.67,6.70,2*03
$GPGSV,4,1,16,01,31,089,27,07,62,063,16,09,29,175,33,19,41,227,28,0*60
$GPGSV,4,2,16,02,18,056,12,06,08,194,15,13,14,317,,14,35,329,18,0*69
$GPGSV,4,3,16,17,63,243,,22,30,310,,30,,,19,37,24,261,,0*5E
$GPGSV,4,4,16,39,28,260,,42,18,096,,40,59,242,,41,73,157,,0*68
$GAGSV,1,1,04,26,15,184,35,07,33,167,,13,34,131,,15,21,073,,0*79
$GLGSV,1,1,00,0*79
$GNVTG,,T,,M,2.314,N,4.286,K,A*31
$GNRMC,113436.00,A,1244.40271,N,07747.43890,E,0.539,,111125,,,A,V*18
$GNGGA,113436.00,1244.40271,N,07747.43890,E,1,07,1.87,836.2,M,,M,,*5E
$GNGSA,A,3,01,19,02,09,07,06,,,,,,,2.69,1.87,1.94,1*0D
$GNGSA,A,3,26,,,,,,,,,,,,2.69,1.87,1.94,3*08
$GNGSA,A,3,,,,,,,,,,,,,2.69,1.87,1.94,2*0D
$GPGSV,4,1,16,01,31,089,29,02,18,056,12,06,08,194,15,07,62,063,16,0*62
$GPGSV,4,2,16,09,29,175,34,19,41,227,29,13,14,317,,14,35,329,18,0*63
$GPGSV,4,3,16,17,63,243,,22,30,310,,30,,,19,37,24,261,,0*5E
$GPGSV,4,4,16,39,28,260,,42,18,096,,40,59,242,,41,73,157,,0*68
$GAGSV,1,1,04,26,15,184,34,07,33,167,,13,34,131,,15,21,073,,0*78
$GLGSV,1,1,00,0*79
$GNVTG,,T,,M,0.539,N,0.999,K,A*3B
$GNRMC,113437.00,A,1244.40244,N,07747.43914,E,2.152,,111125,,,A,V*19
$GNGGA,113437.00,1244.40244,N,07747.43914,E,1,07,2.30,836.6,M,,M,,*5F
$GNGSA,A,3,01,19,02,09,07,06,,,,,,,3.50,2.30,2.64,1*05
$GNGSA,A,3,26,,,,,,,,,,,,3.50,2.30,2.64,3*00
$GNGSA,A,3,,,,,,,,,,,,,3.50,2.30,2.64,2*05
$GPGSV,4,1,16,02,18,056,18,07,62,063,16,09,29,175,34,19,41,227,28,0*61
$GPGSV,4,2,16,01,31,089,30,06,08,194,15,13,14,317,,14,35,329,17,0*6C
$GPGSV,4,3,16,17,63,243,,22,30,310,,30,,,19,37,24,261,,0*5E
$GPGSV,4,4,16,39,28,260,,42,18,096,,40,59,242,,41,73,157,,0*68
$GAGSV,1,1,04,26,15,184,35,07,33,167,,13,34,131,,15,21,073,,0*79
$GLGSV,1,1,00,0*79
$GNVTG,,T,,M,2.152,N,3.986,K,A*3D
$GNRMC,113438.00,A,1244.40209,N,07747.43907,E,1.165,,111125,,,A,V*1A
$GNGGA,113438.00,1244.40209,N,07747.43907,E,1,07,1.91,836.4,M,,M,,*51
$GNGSA,A,3,01,19,02,09,07,06,,,,,,,3.21,1.91,2.58,1*04
$GNGSA,A,3,26,,,,,,,,,,,,3.21,1.91,2.58,3*01
$GNGSA,A,3,,,,,,,,,,,,,3.21,1.91,2.58,2*04
$GPGSV,4,1,16,01,31,089,28,02,18,056,18,07,62,063,17,09,29,175,33,0*6F
$GPGSV,4,2,16,19,41,227,28,06,08,194,15,13,14,317,,14,35,329,17,0*6D
$GPGSV,4,3,16,17,63,243,,22,30,310,,30,,,19,37,24,261,,0*5E
$GPGSV,4,4,16,39,28,260,,42,18,096,,40,59,242,,41,73,157,,0*68
$GAGSV,1,1,04,26,15,184,34,07,33,167,,13,34,131,,15,21,073,,0*78
$GLGSV,1,1,00,0*79
$GNVTG,,T,,M,1.165,N,2.158,K,A*30
$GNRMC,113439.00,A,1244.40221,N,07747.43895,E,1.752,,111125,,,A,V*19
$GNGGA,113439.00,1244.40221,N,07747.43895,E,1,07,2.27,836.1,M,,M,,*5B
$GNGSA,A,3,01,19,02,09,07,06,,,,,,,3.02,2.27,2.00,1*06
$GNGSA,A,3,26,,,,,,,,,,,,3.02,2.27,2.00,3*03
$GNGSA,A,3,,,,,,,,,,,,,3.02,2.27,2.00,2*06
$GPGSV,4,1,16,02,18,056,21,06,08,194,15,07,62,063,17,09,29,175,33,0*6B
$GPGSV,4,2,16,19,41,227,29,01,31,089,29,13,14,317,,14,35,329,15,0*61
$GPGSV,4,3,16,17,63,243,,22,30,310,,30,,,20,37,24,261,,0*54
$GPGSV,4,4,16,39,28,260,,42,18,096,,40,59,242,,41,73,157,,0*68
$GAGSV,1,1,04,26,15,184,34,07,33,167,,13,34,131,,15,21,073,,0*78
$GLGSV,1,1,00,0*79
$GNVTG,,T,,M,1.752,N,3.244,K,A*3D
$GNRMC,113440.00,A,1244.40263,N,07747.43880,E,1.664,,111125,,,A,V*11
$GNGGA,113440.00,1244.40263,N,07747.43880,E,1,07,2.27,836.3,M,,M,,*55
$GNGSA,A,3,01,19,02,09,07,06,,,,,,,3.02,2.27,2.00,1*06
$GNGSA,A,3,26,,,,,,,,,,,,3.02,2.27,2.00,3*03
$GNGSA,A,3,,,,,,,,,,,,,3.02,2.27,2.00,2*06
$GPGSV,4,1,16,02,18,056,21,06,08,194,14,07,62,063,20,09,29,175,33,0*6E
$GPGSV,4,2,16,19,41,227,28,01,31,089,28,13,14,317,,14,35,329,15,0*61
$GPGSV,4,3,16,17,63,243,,22,30,310,,30,,,20,37,24,261,,0*54
$GPGSV,4,4,16,39,28,260,,42,18,096,,40,59,242,,41,73,157,,0*68
$GAGSV,1,1,04,26,15,184,35,07,33,167,,13,34,131,,15,21,073,,0*79
$GLGSV,1,1,00,0*79
$GNVTG,,T,,M,1.664,N,3.082,K,A*31
$GNRMC,113441.00,A,1244.40296,N,07747.43867,E,1.707,,111125,,,A,V*17
$GNGGA,113441.00,1244.40296,N,07747.43867,E,1,07,1.91,836.3,M,,M,,*59
$GNGSA,A,3,01,19,02,09,07,06,,,,,,,3.21,1.91,2.58,1*04
$GNGSA,A,3,26,,,,,,,,,,,,3.21,1.91,2.58,3*01
$GNGSA,A,3,,,,,,,,,,,,,3.21,1.91,2.58,2*04
$GPGSV,4,1,16,01,31,089,27,02,18,056,21,07,62,063,20,09,29,175,33,0*6E
$GPGSV,4,2,16,19,41,227,28,06,08,194,14,13,14,317,,14,35,329,16,0*6D
$GPGSV,4,3,16,17,63,243,,22,30,310,,30,,,21,37,24,261,,0*55
$GPGSV,4,4,16,39,28,260,,42,18,096,,40,59,242,,41,73,157,,0*68
$GAGSV,1,1,04,26,15,184,34,07,33,167,,13,34,131,,15,21,073,,0*78
$GLGSV,1,1,00,0*79
$GNVTG,,T,,M,1.707,N,3.161,K,A*39
$GNRMC,113442.00,A,1244.40328,N,07747.43866,E,0.865,,111125,,,A,V*1B
$GNGGA,113442.00,1244.40328,N,07747.43866,E,1,07,1.87,836.3,M,,M,,*58
$GNGSA,A,3,01,19,02,09,07,06,,,,,,,2.69,1.87,1.94,1*0D
$GNGSA,A,3,26,,,,,,,,,,,,2.69,1.87,1.94,3*08
$GNGSA,A,3,,,,,,,,,,,,,2.69,1.87,1.94,2*0D
$GPGSV,4,1,16,01,31,089,26,02,18,056,21,06,08,194,14,07,62,063,21,0*68
$GPGSV,4,2,16,09,29,175,33,19,41,227,28,13,14,317,,14,35,329,16,0*6B
$GPGSV,4,3,16,17,63,243,,22,30,310,,30,,,21,37,24,261,,0*55
$GPGSV,4,4,16,39,28,260,,42,18,096,,40,59,242,,41,73,157,,0*68
$GAGSV,1,1,04,26,15,184,34,07,33,167,,13,34,131,,15,21,073,,0*78
$GLGSV,1,1,00,0*79
$GNVTG,,T,,M,0.865,N,1.601,K,A*30